[
    {
        "name": "Ojos del Salado, Nevados",
        "country": "Chile-Argentina",
        "lat": "-27.109",
        "lon": "-68.541",
        "elevation": "6879"
    },
    {
        "name": "Llullaillaco",
        "country": "Chile-Argentina",
        "lat": "-24.72",
        "lon": "-68.53",
        "elevation": "6739"
    },
    {
        "name": "Tipas",
        "country": "Argentina",
        "lat": "-27.196",
        "lon": "-68.561",
        "elevation": "6658"
    },
    {
        "name": "Incahuasi, Nevado de",
        "country": "Chile-Argentina",
        "lat": "-27.033",
        "lon": "-68.296",
        "elevation": "6638"
    },
    {
        "name": "Coropuna",
        "country": "Peru",
        "lat": "-15.52",
        "lon": "-72.65",
        "elevation": "6377"
    },
    {
        "name": "Condor, El",
        "country": "Argentina",
        "lat": "-26.632",
        "lon": "-68.361",
        "elevation": "6373"
    },
    {
        "name": "Parinacota",
        "country": "Chile-Bolivia",
        "lat": "-18.166",
        "lon": "-69.142",
        "elevation": "6336"
    },
    {
        "name": "Chimborazo",
        "country": "Ecuador",
        "lat": "-1.469",
        "lon": "-78.817",
        "elevation": "6261"
    },
    {
        "name": "Pular",
        "country": "Chile",
        "lat": "-24.188",
        "lon": "-68.054",
        "elevation": "6233"
    },
    {
        "name": "Solo, El",
        "country": "Chile-Argentina",
        "lat": "-27.105",
        "lon": "-68.713",
        "elevation": "6205"
    }
]